[
    {
        "id": 1,
        "name": "Parking 1",
        "address": "prout",
        "coordinates": {
            "lat": 50.6425,
            "long": 5.5857
        },
        "city": "Liège",
        "area": "Centre",
        "available": 10,
        "capacity": 20
    },
    {
        "id": 2,
        "name": "Parking 2",
        "address": "prout",
        "coordinates": {
            "lat": 50.63569237663317,
            "long": 5.571662394235067
        },
        "city": "Liège",
        "area": "Centre",
        "available": 10,
        "capacity": 20
    },
    {
        "id": 3,
        "name": "Parking 3",
        "address": "prout",
        "coordinates": {
            "lat": 50.627612857402276,
            "long": 5.629570566322512
        },
        "city": "Liège",
        "area": "Centre",
        "available": 10,
        "capacity": 20
    },
    {
        "id": 4,
        "name": "Parking 3",
        "address": "prout",
        "coordinates": {
            "lat": 50.64249679438073,
            "long": 5.593473521364354
        },
        "city": "Liège",
        "area": "Centre",
        "available": 10,
        "capacity": 20
    },
    {
        "id": 5,
        "name": "Parking 3",
        "address": "prout",
        "coordinates": {
            "lat": 50.6649611586614,
            "long": 5.646497546068061
        },
        "city": "Liège",
        "area": "Centre",
        "available": 10,
        "capacity": 20
    }
]